{"type":"FeatureCollection","features":[{"type":"Feature","properties":{"featurecla":"Admin-0 capital","adm0cap":1,"name":"Vatican City","nameascii":"Vatican City","adm0name":"Vatican","sov0name":"Vatican","adm0_a3":"VAT","sov_a3":"VAT","iso_a2":"VA"},"geometry":{"type":"Point","coordinates":[12.453387,41.903282]}},{"type":"Feature","properties":{"featurecla":"Admin-0 capital","adm0cap":1,"name":"San Marino","nameascii":"San Marino","adm0name":"San Marino","sov0name":"San Marino","adm0_a3":"SMR","sov_a3":"SMR","iso_a2":"SM"},"geometry":{"type":"Point","coordinates":[12.44177,43.936096]}},{"type":"Feature","properties":{"featurecla":"Admin-0 capital","adm0cap":1,"name":"Vaduz","nameascii":"Vaduz","adm0name":"Liechtenstein","sov0name":"Liechtenstein","adm0_a3":"LIE","sov_a3":"LIE","iso_a2":"LI"},"geometry":{"type":"Point","coordinates":[9.51667,47.133724]}},{"type":"Feature","properties":{"featurecla":"Admin-0 capital alt","adm0cap":0,"name":"Lobamba","nameascii":"Lobamba","adm0name":"eSwatini","sov0name":"eSwatini","adm0_a3":"SWZ","sov_a3":"SWZ","iso_a2":"SZ"},"geometry":{"type":"Point","coordinates":[31.199997,-26.466667]}},{"type":"Feature","properties":{"featurecla":"Admin-0 capital","adm0cap":1,"name":"Luxembourg","nameascii":"Luxembourg","adm0name":"Luxembourg","sov0name":"Luxembourg","adm0_a3":"LUX","sov_a3":"LUX","iso_a2":"LU"},"geometry":{"type":"Point","coordinates":[6.130003,49.61166]}},{"type":"Feature","properties":{"featurecla":"Admin-0 capital","adm0cap":1,"name":"Palikir","nameascii":"Palikir","adm0name":"Federated States of Micronesia","sov0name":"Federated States of Micronesia","adm0_a3":"FSM","sov_a3":"FSM","iso_a2":"FM"},"geometry":{"type":"Point","coordinates":[158.149974,6.916644]}},{"type":"Feature","properties":{"featurecla":"Admin-0 capital","adm0cap":1,"name":"Majuro","nameascii":"Majuro","adm0name":"Marshall Islands","sov0name":"Marshall Islands","adm0_a3":"MHL","sov_a3":"MHL","iso_a2":"MH"},"geometry":{"type":"Point","coordinates":[171.38,7.103004]}},{"type":"Feature","properties":{"featurecla":"Admin-0 capital","adm0cap":1,"name":"Funafuti","nameascii":"Funafuti","adm0name":"Tuvalu","sov0name":"Tuvalu","adm0_a3":"TUV","sov_a3":"TUV","iso_a2":"TV"},"geometry":{"type":"Point","coordinates":[179.216647,-8.516652]}},{"type":"Feature","properties":{"featurecla":"Admin-0 capital","adm0cap":1,"name":"Melekeok","nameascii":"Melekeok","adm0name":"Palau","sov0name":"Palau","adm0_a3":"PLW","sov_a3":"PLW","iso_a2":"PW"},"geometry":{"type":"Point","coordinates":[134.626549,7.487396]}},{"type":"Feature","properties":{"featurecla":"Admin-0 capital alt","adm0cap":0,"name":"Bir Lehlou","nameascii":"Bir Lehlou","adm0name":"Western Sahara","sov0name":"Western Sahara","adm0_a3":"SAH","sov_a3":"SAH","iso_a2":"EH"},"geometry":{"type":"Point","coordinates":[-9.652522,26.119167]}},{"type":"Feature","properties":{"featurecla":"Admin-0 capital","adm0cap":1,"name":"Monaco","nameascii":"Monaco","adm0name":"Monaco","sov0name":"Monaco","adm0_a3":"MCO","sov_a3":"MCO","iso_a2":"MC"},"geometry":{"type":"Point","coordinates":[7.406913,43.739646]}},{"type":"Feature","properties":{"featurecla":"Admin-0 capital","adm0cap":1,"name":"Tarawa","nameascii":"Tarawa","adm0name":"Kiribati","sov0name":"Kiribati","adm0_a3":"KIR","sov_a3":"KIR","iso_a2":"KI"},"geometry":{"type":"Point","coordinates":[173.017571,1.338188]}},{"type":"Feature","properties":{"featurecla":"Admin-0 capital","adm0cap":1,"name":"Moroni","nameascii":"Moroni","adm0name":"Comoros","sov0name":"Comoros","adm0_a3":"COM","sov_a3":"COM","iso_a2":"KM"},"geometry":{"type":"Point","coordinates":[43.240244,-11.704158]}},{"type":"Feature","properties":{"featurecla":"Admin-0 capital","adm0cap":1,"name":"Andorra","nameascii":"Andorra","adm0name":"Andorra","sov0name":"Andorra","adm0_a3":"AND","sov_a3":"AND","iso_a2":"AD"},"geometry":{"type":"Point","coordinates":[1.526594,42.510753]}},{"type":"Feature","properties":{"featurecla":"Admin-0 capital","adm0cap":1,"name":"Port-of-Spain","nameascii":"Port-of-Spain","adm0name":"Trinidad and Tobago","sov0name":"Trinidad and Tobago","adm0_a3":"TTO","sov_a3":"TTO","iso_a2":"TT"},"geometry":{"type":"Point","coordinates":[-61.517031,10.651997]}},{"type":"Feature","properties":{"featurecla":"Admin-0 capital","adm0cap":1,"name":"Kigali","nameascii":"Kigali","adm0name":"Rwanda","sov0name":"Rwanda","adm0_a3":"RWA","sov_a3":"RWA","iso_a2":"RW"},"geometry":{"type":"Point","coordinates":[30.058586,-1.951644]}},{"type":"Feature","properties":{"featurecla":"Admin-0 capital","adm0cap":1,"name":"Mbabane","nameascii":"Mbabane","adm0name":"eSwatini","sov0name":"eSwatini","adm0_a3":"SWZ","sov_a3":"SWZ","iso_a2":"SZ"},"geometry":{"type":"Point","coordinates":[31.133335,-26.316651]}},{"type":"Feature","properties":{"featurecla":"Admin-0 capital","adm0cap":0,"name":"Juba","nameascii":"Juba","adm0name":"South Sudan","sov0name":"South Sudan","adm0_a3":"SSD","sov_a3":"SSD","iso_a2":"SS"},"geometry":{"type":"Point","coordinates":[31.580026,4.829975]}},{"type":"Feature","properties":{"featurecla":"Admin-0 capital alt","adm0cap":0,"name":"The Hague","nameascii":"The Hague","adm0name":"Netherlands","sov0name":"Kingdom of the Netherlands","adm0_a3":"NLD","sov_a3":"NLD","iso_a2":"NL"},"geometry":{"type":"Point","coordinates":[4.269961,52.080037]}},{"type":"Feature","properties":{"featurecla":"Admin-0 capital","adm0cap":1,"name":"Ljubljana","nameascii":"Ljubljana","adm0name":"Slovenia","sov0name":"Slovenia","adm0_a3":"SVN","sov_a3":"SVN","iso_a2":"SI"},"geometry":{"type":"Point","coordinates":[14.514969,46.055288]}},{"type":"Feature","properties":{"featurecla":"Admin-0 capital","adm0cap":1,"name":"Bratislava","nameascii":"Bratislava","adm0name":"Slovakia","sov0name":"Slovakia","adm0_a3":"SVK","sov_a3":"SVK","iso_a2":"SK"},"geometry":{"type":"Point","coordinates":[17.116981,48.150018]}},{"type":"Feature","properties":{"featurecla":"Admin-0 capital","adm0cap":1,"name":"Doha","nameascii":"Doha","adm0name":"Qatar","sov0name":"Qatar","adm0_a3":"QAT","sov_a3":"QAT","iso_a2":"QA"},"geometry":{"type":"Point","coordinates":[51.532968,25.286556]}},{"type":"Feature","properties":{"featurecla":"Admin-0 capital","adm0cap":1,"name":"Podgorica","nameascii":"Podgorica","adm0name":"Montenegro","sov0name":"Montenegro","adm0_a3":"MNE","sov_a3":"MNE","iso_a2":"ME"},"geometry":{"type":"Point","coordinates":[19.266307,42.465972]}},{"type":"Feature","properties":{"featurecla":"Admin-0 capital alt","adm0cap":0,"name":"Sri Jayawardenepura Kotte","nameascii":"Sri Jawewardenepura Kotte","adm0name":"Sri Lanka","sov0name":"Sri Lanka","adm0_a3":"LKA","sov_a3":"LKA","iso_a2":"LK"},"geometry":{"type":"Point","coordinates":[79.949993,6.900004]}},{"type":"Feature","properties":{"featurecla":"Admin-0 capital alt","adm0cap":0,"name":"Baguio","nameascii":"Baguio City","adm0name":"Philippines","sov0name":"Philippines","adm0_a3":"PHL","sov_a3":"PHL","iso_a2":"PH"},"geometry":{"type":"Point","coordinates":[120.569943,16.429991]}},{"type":"Feature","properties":{"featurecla":"Admin-0 capital alt","adm0cap":0,"name":"Dodoma","nameascii":"Dodoma","adm0name":"Tanzania","sov0name":"United Republic of Tanzania","adm0_a3":"TZA","sov_a3":"TZA","iso_a2":"TZ"},"geometry":{"type":"Point","coordinates":[35.750004,-6.183306]}},{"type":"Feature","properties":{"featurecla":"Admin-0 capital","adm0cap":1,"name":"Bern","nameascii":"Bern","adm0name":"Switzerland","sov0name":"Switzerland","adm0_a3":"CHE","sov_a3":"CHE","iso_a2":"CH"},"geometry":{"type":"Point","coordinates":[7.466976,46.916683]}},{"type":"Feature","properties":{"featurecla":"Admin-0 capital alt","adm0cap":0,"name":"Laayoune","nameascii":"Laayoune","adm0name":"Morocco","sov0name":"Morocco","adm0_a3":"MAR","sov_a3":"MAR","iso_a2":"MA"},"geometry":{"type":"Point","coordinates":[-13.200006,27.149982]}},{"type":"Feature","properties":{"featurecla":"Admin-0 capital","adm0cap":1,"name":"Pristina","nameascii":"Pristina","adm0name":"Kosovo","sov0name":"Kosovo","adm0_a3":"KOS","sov_a3":"KOS","iso_a2":"-99"},"geometry":{"type":"Point","coordinates":[21.165984,42.66671]}},{"type":"Feature","properties":{"featurecla":"Admin-0 capital","adm0cap":1,"name":"Roseau","nameascii":"Roseau","adm0name":"Dominica","sov0name":"Dominica","adm0_a3":"DMA","sov_a3":"DMA","iso_a2":"DM"},"geometry":{"type":"Point","coordinates":[-61.387013,15.301016]}},{"type":"Feature","properties":{"featurecla":"Admin-0 capital","adm0cap":1,"name":"Djibouti","nameascii":"Djibouti","adm0name":"Djibouti","sov0name":"Djibouti","adm0_a3":"DJI","sov_a3":"DJI","iso_a2":"DJ"},"geometry":{"type":"Point","coordinates":[43.148002,11.595014]}},{"type":"Feature","properties":{"featurecla":"Admin-0 capital alt","adm0cap":0,"name":"Putrajaya","nameascii":"Putrajaya","adm0name":"Malaysia","sov0name":"Malaysia","adm0_a3":"MYS","sov_a3":"MYS","iso_a2":"MY"},"geometry":{"type":"Point","coordinates":[101.695037,2.932515]}},{"type":"Feature","properties":{"featurecla":"Admin-0 capital alt","adm0cap":0,"name":"Kyoto","nameascii":"Kyoto","adm0name":"Japan","sov0name":"Japan","adm0_a3":"JPN","sov_a3":"JPN","iso_a2":"JP"},"geometry":{"type":"Point","coordinates":[135.748052,35.031938]}},{"type":"Feature","properties":{"featurecla":"Admin-0 capital","adm0cap":1,"name":"Banjul","nameascii":"Banjul","adm0name":"The Gambia","sov0name":"Gambia, The","adm0_a3":"GMB","sov_a3":"GMB","iso_a2":"GM"},"geometry":{"type":"Point","coordinates":[-16.591701,13.453876]}},{"type":"Feature","properties":{"featurecla":"Admin-0 capital","adm0cap":1,"name":"Skopje","nameascii":"Skopje","adm0name":"North Macedonia","sov0name":"North Macedonia","adm0_a3":"MKD","sov_a3":"MKD","iso_a2":"MK"},"geometry":{"type":"Point","coordinates":[21.433461,42.000006]}},{"type":"Feature","properties":{"featurecla":"Admin-0 capital","adm0cap":1,"name":"Bridgetown","nameascii":"Bridgetown","adm0name":"Barbados","sov0name":"Barbados","adm0_a3":"BRB","sov_a3":"BRB","iso_a2":"BB"},"geometry":{"type":"Point","coordinates":[-59.616527,13.102003]}},{"type":"Feature","properties":{"featurecla":"Admin-0 capital alt","adm0cap":0,"name":"Porto-Novo","nameascii":"Porto-Novo","adm0name":"Benin","sov0name":"Benin","adm0_a3":"BEN","sov_a3":"BEN","iso_a2":"BJ"},"geometry":{"type":"Point","coordinates":[2.616626,6.483311]}},{"type":"Feature","properties":{"featurecla":"Admin-0 capital","adm0cap":1,"name":"Bujumbura","nameascii":"Bujumbura","adm0name":"Burundi","sov0name":"Burundi","adm0_a3":"BDI","sov_a3":"BDI","iso_a2":"BI"},"geometry":{"type":"Point","coordinates":[29.360006,-3.376087]}},{"type":"Feature","properties":{"featurecla":"Admin-0 capital","adm0cap":1,"name":"Kingstown","nameascii":"Kingstown","adm0name":"Saint Vincent and the Grenadines","sov0name":"Saint Vincent and the Grenadines","adm0_a3":"VCT","sov_a3":"VCT","iso_a2":"VC"},"geometry":{"type":"Point","coordinates":[-61.220236,13.155756]}},{"type":"Feature","properties":{"featurecla":"Admin-0 capital","adm0cap":1,"name":"Castries","nameascii":"Castries","adm0name":"Saint Lucia","sov0name":"Saint Lucia","adm0_a3":"LCA","sov_a3":"LCA","iso_a2":"LC"},"geometry":{"type":"Point","coordinates":[-60.992875,14.007875]}},{"type":"Feature","properties":{"featurecla":"Admin-0 capital","adm0cap":1,"name":"Basseterre","nameascii":"Basseterre","adm0name":"Saint Kitts and Nevis","sov0name":"Saint Kitts and Nevis","adm0_a3":"KNA","sov_a3":"KNA","iso_a2":"KN"},"geometry":{"type":"Point","coordinates":[-62.717009,17.302031]}},{"type":"Feature","properties":{"featurecla":"Admin-0 capital","adm0cap":1,"name":"Port Louis","nameascii":"Port Louis","adm0name":"Mauritius","sov0name":"Mauritius","adm0_a3":"MUS","sov_a3":"MUS","iso_a2":"MU"},"geometry":{"type":"Point","coordinates":[57.499994,-20.166639]}},{"type":"Feature","properties":{"featurecla":"Admin-0 capital","adm0cap":1,"name":"Saint George's","nameascii":"Saint George's","adm0name":"Grenada","sov0name":"Grenada","adm0_a3":"GRD","sov_a3":"GRD","iso_a2":"GD"},"geometry":{"type":"Point","coordinates":[-61.741643,12.052633]}},{"type":"Feature","properties":{"featurecla":"Admin-0 capital","adm0cap":1,"name":"Manama","nameascii":"Manama","adm0name":"Bahrain","sov0name":"Bahrain","adm0_a3":"BHR","sov_a3":"BHR","iso_a2":"BH"},"geometry":{"type":"Point","coordinates":[50.583052,26.236136]}},{"type":"Feature","properties":{"featurecla":"Admin-0 capital","adm0cap":1,"name":"Saint John's","nameascii":"Saint John's","adm0name":"Antigua and Barbuda","sov0name":"Antigua and Barbuda","adm0_a3":"ATG","sov_a3":"ATG","iso_a2":"AG"},"geometry":{"type":"Point","coordinates":[-61.850034,17.118036]}},{"type":"Feature","properties":{"featurecla":"Admin-0 capital","adm0cap":1,"name":"Montevideo","nameascii":"Montevideo","adm0name":"Uruguay","sov0name":"Uruguay","adm0_a3":"URY","sov_a3":"URY","iso_a2":"UY"},"geometry":{"type":"Point","coordinates":[-56.186823,-34.905376]}},{"type":"Feature","properties":{"featurecla":"Admin-0 capital","adm0cap":1,"name":"Lomé","nameascii":"Lome","adm0name":"Togo","sov0name":"Togo","adm0_a3":"TGO","sov_a3":"TGO","iso_a2":"TG"},"geometry":{"type":"Point","coordinates":[1.220811,6.133883]}},{"type":"Feature","properties":{"featurecla":"Admin-0 capital","adm0cap":1,"name":"Tunis","nameascii":"Tunis","adm0name":"Tunisia","sov0name":"Tunisia","adm0_a3":"TUN","sov_a3":"TUN","iso_a2":"TN"},"geometry":{"type":"Point","coordinates":[10.179678,36.802778]}},{"type":"Feature","properties":{"featurecla":"Admin-0 capital","adm0cap":1,"name":"Abu Dhabi","nameascii":"Abu Dhabi","adm0name":"United Arab Emirates","sov0name":"United Arab Emirates","adm0_a3":"ARE","sov_a3":"ARE","iso_a2":"AE"},"geometry":{"type":"Point","coordinates":[54.366593,24.466684]}},{"type":"Feature","properties":{"featurecla":"Admin-0 capital","adm0cap":1,"name":"Ashgabat","nameascii":"Ashgabat","adm0name":"Turkmenistan","sov0name":"Turkmenistan","adm0_a3":"TKM","sov_a3":"TKM","iso_a2":"TM"},"geometry":{"type":"Point","coordinates":[58.383299,37.949995]}},{"type":"Feature","properties":{"featurecla":"Admin-0 capital","adm0cap":1,"name":"Lusaka","nameascii":"Lusaka","adm0name":"Zambia","sov0name":"Zambia","adm0_a3":"ZMB","sov_a3":"ZMB","iso_a2":"ZM"},"geometry":{"type":"Point","coordinates":[28.281382,-15.414698]}},{"type":"Feature","properties":{"featurecla":"Admin-0 capital","adm0cap":1,"name":"Harare","nameascii":"Harare","adm0name":"Zimbabwe","sov0name":"Zimbabwe","adm0_a3":"ZWE","sov_a3":"ZWE","iso_a2":"ZW"},"geometry":{"type":"Point","coordinates":[31.042764,-17.815844]}},{"type":"Feature","properties":{"featurecla":"Admin-0 capital","adm0cap":1,"name":"Dili","nameascii":"Dili","adm0name":"East Timor","sov0name":"East Timor","adm0_a3":"TLS","sov_a3":"TLS","iso_a2":"TL"},"geometry":{"type":"Point","coordinates":[125.579456,-8.559388]}},{"type":"Feature","properties":{"featurecla":"Admin-0 capital","adm0cap":1,"name":"Port Vila","nameascii":"Port Vila","adm0name":"Vanuatu","sov0name":"Vanuatu","adm0_a3":"VUT","sov_a3":"VUT","iso_a2":"VU"},"geometry":{"type":"Point","coordinates":[168.316641,-17.73335]}},{"type":"Feature","properties":{"featurecla":"Admin-0 capital","adm0cap":1,"name":"Tegucigalpa","nameascii":"Tegucigalpa","adm0name":"Honduras","sov0name":"Honduras","adm0_a3":"HND","sov_a3":"HND","iso_a2":"HN"},"geometry":{"type":"Point","coordinates":[-87.219475,14.103991]}},{"type":"Feature","properties":{"featurecla":"Admin-0 capital","adm0cap":1,"name":"Georgetown","nameascii":"Georgetown","adm0name":"Guyana","sov0name":"Guyana","adm0_a3":"GUY","sov_a3":"GUY","iso_a2":"GY"},"geometry":{"type":"Point","coordinates":[-58.167029,6.801974]}},{"type":"Feature","properties":{"featurecla":"Admin-0 capital","adm0cap":1,"name":"Reykjavík","nameascii":"Reykjavik","adm0name":"Iceland","sov0name":"Iceland","adm0_a3":"ISL","sov_a3":"ISL","iso_a2":"IS"},"geometry":{"type":"Point","coordinates":[-21.936546,64.143459]}},{"type":"Feature","properties":{"featurecla":"Admin-0 capital","adm0cap":1,"name":"Port-au-Prince","nameascii":"Port-au-Prince","adm0name":"Haiti","sov0name":"Haiti","adm0_a3":"HTI","sov_a3":"HTI","iso_a2":"HT"},"geometry":{"type":"Point","coordinates":[-72.33798,18.54297]}},{"type":"Feature","properties":{"featurecla":"Admin-0 capital","adm0cap":1,"name":"Kampala","nameascii":"Kampala","adm0name":"Uganda","sov0name":"Uganda","adm0_a3":"UGA","sov_a3":"UGA","iso_a2":"UG"},"geometry":{"type":"Point","coordinates":[32.581378,0.318605]}},{"type":"Feature","properties":{"featurecla":"Admin-0 capital","adm0cap":1,"name":"Paramaribo","nameascii":"Paramaribo","adm0name":"Suriname","sov0name":"Suriname","adm0_a3":"SUR","sov_a3":"SUR","iso_a2":"SR"},"geometry":{"type":"Point","coordinates":[-55.167031,5.83503]}},{"type":"Feature","properties":{"featurecla":"Admin-0 capital","adm0cap":1,"name":"Niamey","nameascii":"Niamey","adm0name":"Niger","sov0name":"Niger","adm0_a3":"NER","sov_a3":"NER","iso_a2":"NE"},"geometry":{"type":"Point","coordinates":[2.11471,13.518652]}},{"type":"Feature","properties":{"featurecla":"Admin-0 capital","adm0cap":1,"name":"Dushanbe","nameascii":"Dushanbe","adm0name":"Tajikistan","sov0name":"Tajikistan","adm0_a3":"TJK","sov_a3":"TJK","iso_a2":"TJ"},"geometry":{"type":"Point","coordinates":[68.773879,38.560035]}},{"type":"Feature","properties":{"featurecla":"Admin-0 capital","adm0cap":1,"name":"Asunción","nameascii":"Asuncion","adm0name":"Paraguay","sov0name":"Paraguay","adm0_a3":"PRY","sov_a3":"PRY","iso_a2":"PY"},"geometry":{"type":"Point","coordinates":[-57.625834,-25.290671]}},{"type":"Feature","properties":{"featurecla":"Admin-0 capital","adm0cap":1,"name":"Managua","nameascii":"Managua","adm0name":"Nicaragua","sov0name":"Nicaragua","adm0_a3":"NIC","sov_a3":"NIC","iso_a2":"NI"},"geometry":{"type":"Point","coordinates":[-86.270437,12.154962]}},{"type":"Feature","properties":{"featurecla":"Admin-0 capital","adm0cap":1,"name":"Freetown","nameascii":"Freetown","adm0name":"Sierra Leone","sov0name":"Sierra Leone","adm0_a3":"SLE","sov_a3":"SLE","iso_a2":"SL"},"geometry":{"type":"Point","coordinates":[-13.236162,8.471957]}},{"type":"Feature","properties":{"featurecla":"Admin-0 capital","adm0cap":1,"name":"Islamabad","nameascii":"Islamabad","adm0name":"Pakistan","sov0name":"Pakistan","adm0_a3":"PAK","sov_a3":"PAK","iso_a2":"PK"},"geometry":{"type":"Point","coordinates":[73.08063,33.689368]}},{"type":"Feature","properties":{"featurecla":"Admin-0 capital","adm0cap":1,"name":"Kathmandu","nameascii":"Kathmandu","adm0name":"Nepal","sov0name":"Nepal","adm0_a3":"NPL","sov_a3":"NPL","iso_a2":"NP"},"geometry":{"type":"Point","coordinates":[85.314696,27.718638]}},{"type":"Feature","properties":{"featurecla":"Admin-0 capital","adm0cap":1,"name":"Bloemfontein","nameascii":"Bloemfontein","adm0name":"South Africa","sov0name":"South Africa","adm0_a3":"ZAF","sov_a3":"ZAF","iso_a2":"ZA"},"geometry":{"type":"Point","coordinates":[26.229913,-29.119994]}},{"type":"Feature","properties":{"featurecla":"Admin-0 capital","adm0cap":1,"name":"Pretoria","nameascii":"Pretoria","adm0name":"South Africa","sov0name":"South Africa","adm0_a3":"ZAF","sov_a3":"ZAF","iso_a2":"ZA"},"geometry":{"type":"Point","coordinates":[28.227483,-25.704975]}},{"type":"Feature","properties":{"featurecla":"Admin-0 capital","adm0cap":1,"name":"Port Moresby","nameascii":"Port Moresby","adm0name":"Papua New Guinea","sov0name":"Papua New Guinea","adm0_a3":"PNG","sov_a3":"PNG","iso_a2":"PG"},"geometry":{"type":"Point","coordinates":[147.192504,-9.464708]}},{"type":"Feature","properties":{"featurecla":"Admin-0 capital","adm0cap":1,"name":"Honiara","nameascii":"Honiara","adm0name":"Solomon Islands","sov0name":"Solomon Islands","adm0_a3":"SLB","sov_a3":"SLB","iso_a2":"SB"},"geometry":{"type":"Point","coordinates":[159.949766,-9.437994]}},{"type":"Feature","properties":{"featurecla":"Admin-0 capital","adm0cap":1,"name":"Panama City","nameascii":"Panama City","adm0name":"Panama","sov0name":"Panama","adm0_a3":"PAN","sov_a3":"PAN","iso_a2":"PA"},"geometry":{"type":"Point","coordinates":[-79.534983,8.969963]}},{"type":"Feature","properties":{"featurecla":"Admin-0 capital","adm0cap":1,"name":"Rabat","nameascii":"Rabat","adm0name":"Morocco","sov0name":"Morocco","adm0_a3":"MAR","sov_a3":"MAR","iso_a2":"MA"},"geometry":{"type":"Point","coordinates":[-6.836408,34.025307]}},{"type":"Feature","properties":{"featurecla":"Admin-0 capital","adm0cap":1,"name":"Chișinău","nameascii":"Chisinau","adm0name":"Moldova","sov0name":"Moldova","adm0_a3":"MDA","sov_a3":"MDA","iso_a2":"MD"},"geometry":{"type":"Point","coordinates":[28.857711,47.005024]}},{"type":"Feature","properties":{"featurecla":"Admin-0 capital","adm0cap":1,"name":"Maputo","nameascii":"Maputo","adm0name":"Mozambique","sov0name":"Mozambique","adm0_a3":"MOZ","sov_a3":"MOZ","iso_a2":"MZ"},"geometry":{"type":"Point","coordinates":[32.587217,-25.953332]}},{"type":"Feature","properties":{"featurecla":"Admin-0 capital","adm0cap":1,"name":"Mogadishu","nameascii":"Mogadishu","adm0name":"Somalia","sov0name":"Somalia","adm0_a3":"SOM","sov_a3":"SOM","iso_a2":"SO"},"geometry":{"type":"Point","coordinates":[45.364732,2.068627]}},{"type":"Feature","properties":{"featurecla":"Admin-0 capital","adm0cap":1,"name":"Muscat","nameascii":"Muscat","adm0name":"Oman","sov0name":"Oman","adm0_a3":"OMN","sov_a3":"OMN","iso_a2":"OM"},"geometry":{"type":"Point","coordinates":[58.378311,23.585179]}},{"type":"Feature","properties":{"featurecla":"Admin-0 capital","adm0cap":1,"name":"Colombo","nameascii":"Colombo","adm0name":"Sri Lanka","sov0name":"Sri Lanka","adm0_a3":"LKA","sov_a3":"LKA","iso_a2":"LK"},"geometry":{"type":"Point","coordinates":[79.857751,6.931966]}},{"type":"Feature","properties":{"featurecla":"Admin-0 capital","adm0cap":1,"name":"Ulaanbaatar","nameascii":"Ulaanbaatar","adm0name":"Mongolia","sov0name":"Mongolia","adm0_a3":"MNG","sov_a3":"MNG","iso_a2":"MN"},"geometry":{"type":"Point","coordinates":[106.91467,47.918619]}},{"type":"Feature","properties":{"featurecla":"Admin-0 capital","adm0cap":1,"name":"Windhoek","nameascii":"Windhoek","adm0name":"Namibia","sov0name":"Namibia","adm0_a3":"NAM","sov_a3":"NAM","iso_a2":"NA"},"geometry":{"type":"Point","coordinates":[17.083546,-22.570006]}},{"type":"Feature","properties":{"featurecla":"Admin-0 capital","adm0cap":1,"name":"Abuja","nameascii":"Abuja","adm0name":"Nigeria","sov0name":"Nigeria","adm0_a3":"NGA","sov_a3":"NGA","iso_a2":"NG"},"geometry":{"type":"Point","coordinates":[7.489505,9.05462]}},{"type":"Feature","properties":{"featurecla":"Admin-0 capital","adm0cap":1,"name":"Bissau","nameascii":"Bissau","adm0name":"Guinea Bissau","sov0name":"Guinea Bissau","adm0_a3":"GNB","sov_a3":"GNB","iso_a2":"GW"},"geometry":{"type":"Point","coordinates":[-15.598361,11.865024]}},{"type":"Feature","properties":{"featurecla":"Admin-0 capital","adm0cap":1,"name":"Amman","nameascii":"Amman","adm0name":"Jordan","sov0name":"Jordan","adm0_a3":"JOR","sov_a3":"JOR","iso_a2":"JO"},"geometry":{"type":"Point","coordinates":[35.931354,31.951971]}},{"type":"Feature","properties":{"featurecla":"Admin-0 capital","adm0cap":1,"name":"Vilnius","nameascii":"Vilnius","adm0name":"Lithuania","sov0name":"Lithuania","adm0_a3":"LTU","sov_a3":"LTU","iso_a2":"LT"},"geometry":{"type":"Point","coordinates":[25.316635,54.683366]}},{"type":"Feature","properties":{"featurecla":"Admin-0 capital","adm0cap":1,"name":"Riga","nameascii":"Riga","adm0name":"Latvia","sov0name":"Latvia","adm0_a3":"LVA","sov_a3":"LVA","iso_a2":"LV"},"geometry":{"type":"Point","coordinates":[24.099965,56.950024]}},{"type":"Feature","properties":{"featurecla":"Admin-0 capital","adm0cap":1,"name":"Bishkek","nameascii":"Bishkek","adm0name":"Kyrgyzstan","sov0name":"Kyrgyzstan","adm0_a3":"KGZ","sov_a3":"KGZ","iso_a2":"KG"},"geometry":{"type":"Point","coordinates":[74.583258,42.875025]}},{"type":"Feature","properties":{"featurecla":"Admin-0 capital","adm0cap":1,"name":"Maseru","nameascii":"Maseru","adm0name":"Lesotho","sov0name":"Lesotho","adm0_a3":"LSO","sov_a3":"LSO","iso_a2":"LS"},"geometry":{"type":"Point","coordinates":[27.483273,-29.316674]}},{"type":"Feature","properties":{"featurecla":"Admin-0 capital","adm0cap":1,"name":"Antananarivo","nameascii":"Antananarivo","adm0name":"Madagascar","sov0name":"Madagascar","adm0_a3":"MDG","sov_a3":"MDG","iso_a2":"MG"},"geometry":{"type":"Point","coordinates":[47.514678,-18.914691]}},{"type":"Feature","properties":{"featurecla":"Admin-0 capital","adm0cap":1,"name":"Quito","nameascii":"Quito","adm0name":"Ecuador","sov0name":"Ecuador","adm0_a3":"ECU","sov_a3":"ECU","iso_a2":"EC"},"geometry":{"type":"Point","coordinates":[-78.501997,-0.213042]}},{"type":"Feature","properties":{"featurecla":"Admin-0 capital","adm0cap":1,"name":"San José","nameascii":"San Jose","adm0name":"Costa Rica","sov0name":"Costa Rica","adm0_a3":"CRI","sov_a3":"CRI","iso_a2":"CR"},"geometry":{"type":"Point","coordinates":[-84.078814,9.930371]}},{"type":"Feature","properties":{"featurecla":"Admin-0 capital","adm0cap":1,"name":"San Salvador","nameascii":"San Salvador","adm0name":"El Salvador","sov0name":"El Salvador","adm0_a3":"SLV","sov_a3":"SLV","iso_a2":"SV"},"geometry":{"type":"Point","coordinates":[-89.215576,13.70328]}},{"type":"Feature","properties":{"featurecla":"Admin-0 capital","adm0cap":1,"name":"Kingston","nameascii":"Kingston","adm0name":"Jamaica","sov0name":"Jamaica","adm0_a3":"JAM","sov_a3":"JAM","iso_a2":"JM"},"geometry":{"type":"Point","coordinates":[-76.767434,17.977077]}},{"type":"Feature","properties":{"featurecla":"Admin-0 capital","adm0cap":1,"name":"N'Djamena","nameascii":"Ndjamena","adm0name":"Chad","sov0name":"Chad","adm0_a3":"TCD","sov_a3":"TCD","iso_a2":"TD"},"geometry":{"type":"Point","coordinates":[15.047202,12.115042]}},{"type":"Feature","properties":{"featurecla":"Admin-0 capital","adm0cap":1,"name":"Malabo","nameascii":"Malabo","adm0name":"Equatorial Guinea","sov0name":"Equatorial Guinea","adm0_a3":"GNQ","sov_a3":"GNQ","iso_a2":"GQ"},"geometry":{"type":"Point","coordinates":[8.783278,3.750015]}},{"type":"Feature","properties":{"featurecla":"Admin-0 capital","adm0cap":1,"name":"Asmara","nameascii":"Asmara","adm0name":"Eritrea","sov0name":"Eritrea","adm0_a3":"ERI","sov_a3":"ERI","iso_a2":"ER"},"geometry":{"type":"Point","coordinates":[38.933324,15.333339]}},{"type":"Feature","properties":{"featurecla":"Admin-0 capital","adm0cap":1,"name":"Zagreb","nameascii":"Zagreb","adm0name":"Croatia","sov0name":"Croatia","adm0_a3":"HRV","sov_a3":"HRV","iso_a2":"HR"},"geometry":{"type":"Point","coordinates":[15.999995,45.800007]}},{"type":"Feature","properties":{"featurecla":"Admin-0 capital","adm0cap":1,"name":"Tallinn","nameascii":"Tallinn","adm0name":"Estonia","sov0name":"Estonia","adm0_a3":"EST","sov_a3":"EST","iso_a2":"EE"},"geometry":{"type":"Point","coordinates":[24.728041,59.433877]}},{"type":"Feature","properties":{"featurecla":"Admin-0 capital","adm0cap":1,"name":"Lilongwe","nameascii":"Lilongwe","adm0name":"Malawi","sov0name":"Malawi","adm0_a3":"MWI","sov_a3":"MWI","iso_a2":"MW"},"geometry":{"type":"Point","coordinates":[33.783302,-13.983295]}},{"type":"Feature","properties":{"featurecla":"Admin-0 capital","adm0cap":1,"name":"Guatemala City","nameascii":"Guatemala","adm0name":"Guatemala","sov0name":"Guatemala","adm0_a3":"GTM","sov_a3":"GTM","iso_a2":"GT"},"geometry":{"type":"Point","coordinates":[-90.528911,14.623081]}},{"type":"Feature","properties":{"featurecla":"Admin-0 capital","adm0cap":1,"name":"Libreville","nameascii":"Libreville","adm0name":"Gabon","sov0name":"Gabon","adm0_a3":"GAB","sov_a3":"GAB","iso_a2":"GA"},"geometry":{"type":"Point","coordinates":[9.457965,0.385389]}},{"type":"Feature","properties":{"featurecla":"Admin-0 capital","adm0cap":1,"name":"Suva","nameascii":"Suva","adm0name":"Fiji","sov0name":"Fiji","adm0_a3":"FJI","sov_a3":"FJI","iso_a2":"FJ"},"geometry":{"type":"Point","coordinates":[178.441707,-18.133016]}},{"type":"Feature","properties":{"featurecla":"Admin-0 capital alt","adm0cap":0,"name":"Valparaíso","nameascii":"Valparaiso","adm0name":"Chile","sov0name":"Chile","adm0_a3":"CHL","sov_a3":"CHL","iso_a2":"CL"},"geometry":{"type":"Point","coordinates":[-71.617026,-33.047739]}},{"type":"Feature","properties":{"featurecla":"Admin-0 capital","adm0cap":1,"name":"Nouakchott","nameascii":"Nouakchott","adm0name":"Mauritania","sov0name":"Mauritania","adm0_a3":"MRT","sov_a3":"MRT","iso_a2":"MR"},"geometry":{"type":"Point","coordinates":[-15.97534,18.086427]}},{"type":"Feature","properties":{"featurecla":"Admin-0 capital","adm0cap":1,"name":"Bamako","nameascii":"Bamako","adm0name":"Mali","sov0name":"Mali","adm0_a3":"MLI","sov_a3":"MLI","iso_a2":"ML"},"geometry":{"type":"Point","coordinates":[-8.001985,12.65196]}},{"type":"Feature","properties":{"featurecla":"Admin-0 capital","adm0cap":1,"name":"Beirut","nameascii":"Beirut","adm0name":"Lebanon","sov0name":"Lebanon","adm0_a3":"LBN","sov_a3":"LBN","iso_a2":"LB"},"geometry":{"type":"Point","coordinates":[35.507762,33.873921]}},{"type":"Feature","properties":{"featurecla":"Admin-0 capital","adm0cap":1,"name":"Tbilisi","nameascii":"Tbilisi","adm0name":"Georgia","sov0name":"Georgia","adm0_a3":"GEO","sov_a3":"GEO","iso_a2":"GE"},"geometry":{"type":"Point","coordinates":[44.78885,41.726956]}},{"type":"Feature","properties":{"featurecla":"Admin-0 capital","adm0cap":1,"name":"Nur-Sultan","nameascii":"Astana","adm0name":"Kazakhstan","sov0name":"Kazakhstan","adm0_a3":"KAZ","sov_a3":"KAZ","iso_a2":"KZ"},"geometry":{"type":"Point","coordinates":[71.427774,51.181125]}},{"type":"Feature","properties":{"featurecla":"Admin-0 capital","adm0cap":1,"name":"Vientiane","nameascii":"Vientiane","adm0name":"Laos","sov0name":"Laos","adm0_a3":"LAO","sov_a3":"LAO","iso_a2":"LA"},"geometry":{"type":"Point","coordinates":[102.59998,17.966693]}},{"type":"Feature","properties":{"featurecla":"Admin-0 capital","adm0cap":1,"name":"Brazzaville","nameascii":"Brazzaville","adm0name":"Congo (Brazzaville)","sov0name":"Congo (Brazzaville)","adm0_a3":"COG","sov_a3":"COG","iso_a2":"CG"},"geometry":{"type":"Point","coordinates":[15.282744,-4.25724]}},{"type":"Feature","properties":{"featurecla":"Admin-0 capital","adm0cap":1,"name":"Conakry","nameascii":"Conakry","adm0name":"Guinea","sov0name":"Guinea","adm0_a3":"GIN","sov_a3":"GIN","iso_a2":"GN"},"geometry":{"type":"Point","coordinates":[-13.682181,9.533469]}},{"type":"Feature","properties":{"featurecla":"Admin-0 capital","adm0cap":1,"name":"Yamoussoukro","nameascii":"Yamoussoukro","adm0name":"Ivory Coast","sov0name":"Ivory Coast","adm0_a3":"CIV","sov_a3":"CIV","iso_a2":"CI"},"geometry":{"type":"Point","coordinates":[-5.275503,6.818381]}},{"type":"Feature","properties":{"featurecla":"Admin-0 capital","adm0cap":1,"name":"Ottawa","nameascii":"Ottawa","adm0name":"Canada","sov0name":"Canada","adm0_a3":"CAN","sov_a3":"CAN","iso_a2":"CA"},"geometry":{"type":"Point","coordinates":[-75.701961,45.418643]}},{"type":"Feature","properties":{"featurecla":"Admin-0 capital","adm0cap":1,"name":"Belgrade","nameascii":"Belgrade","adm0name":"Serbia","sov0name":"Republic of Serbia","adm0_a3":"SRB","sov_a3":"SRB","iso_a2":"RS"},"geometry":{"type":"Point","coordinates":[20.466045,44.820591]}},{"type":"Feature","properties":{"featurecla":"Admin-0 capital","adm0cap":1,"name":"Bandar Seri Begawan","nameascii":"Bandar Seri Begawan","adm0name":"Brunei","sov0name":"Brunei","adm0_a3":"BRN","sov_a3":"BRN","iso_a2":"BN"},"geometry":{"type":"Point","coordinates":[114.933284,4.883331]}},{"type":"Feature","properties":{"featurecla":"Admin-0 capital","adm0cap":1,"name":"Sucre","nameascii":"Sucre","adm0name":"Bolivia","sov0name":"Bolivia","adm0_a3":"BOL","sov_a3":"BOL","iso_a2":"BO"},"geometry":{"type":"Point","coordinates":[-65.259516,-19.040971]}},{"type":"Feature","properties":{"featurecla":"Admin-0 capital","adm0cap":1,"name":"Belmopan","nameascii":"Belmopan","adm0name":"Belize","sov0name":"Belize","adm0_a3":"BLZ","sov_a3":"BLZ","iso_a2":"BZ"},"geometry":{"type":"Point","coordinates":[-88.767073,17.252033]}},{"type":"Feature","properties":{"featurecla":"Admin-0 capital","adm0cap":1,"name":"Bangui","nameascii":"Bangui","adm0name":"Central African Republic","sov0name":"Central African Republic","adm0_a3":"CAF","sov_a3":"CAF","iso_a2":"CF"},"geometry":{"type":"Point","coordinates":[18.558288,4.366644]}},{"type":"Feature","properties":{"featurecla":"Admin-0 capital","adm0cap":1,"name":"Yaoundé","nameascii":"Yaounde","adm0name":"Cameroon","sov0name":"Cameroon","adm0_a3":"CMR","sov_a3":"CMR","iso_a2":"CM"},"geometry":{"type":"Point","coordinates":[11.514705,3.868647]}},{"type":"Feature","properties":{"featurecla":"Admin-0 capital","adm0cap":1,"name":"Tirana","nameascii":"Tirana","adm0name":"Albania","sov0name":"Albania","adm0_a3":"ALB","sov_a3":"ALB","iso_a2":"AL"},"geometry":{"type":"Point","coordinates":[19.818883,41.327541]}},{"type":"Feature","properties":{"featurecla":"Admin-0 capital","adm0cap":1,"name":"Yerevan","nameascii":"Yerevan","adm0name":"Armenia","sov0name":"Armenia","adm0_a3":"ARM","sov_a3":"ARM","iso_a2":"AM"},"geometry":{"type":"Point","coordinates":[44.511606,40.183097]}},{"type":"Feature","properties":{"featurecla":"Admin-0 capital","adm0cap":1,"name":"Baku","nameascii":"Baku","adm0name":"Azerbaijan","sov0name":"Azerbaijan","adm0_a3":"AZE","sov_a3":"AZE","iso_a2":"AZ"},"geometry":{"type":"Point","coordinates":[49.860271,40.397218]}},{"type":"Feature","properties":{"featurecla":"Admin-0 capital","adm0cap":1,"name":"Phnom Penh","nameascii":"Phnom Penh","adm0name":"Cambodia","sov0name":"Cambodia","adm0_a3":"KHM","sov_a3":"KHM","iso_a2":"KH"},"geometry":{"type":"Point","coordinates":[104.914689,11.551976]}},{"type":"Feature","properties":{"featurecla":"Admin-0 capital","adm0cap":1,"name":"La Paz","nameascii":"La Paz","adm0name":"Bolivia","sov0name":"Bolivia","adm0_a3":"BOL","sov_a3":"BOL","iso_a2":"BO"},"geometry":{"type":"Point","coordinates":[-68.151931,-16.496028]}},{"type":"Feature","properties":{"featurecla":"Admin-0 capital","adm0cap":1,"name":"Cotonou","nameascii":"Cotonou","adm0name":"Benin","sov0name":"Benin","adm0_a3":"BEN","sov_a3":"BEN","iso_a2":"BJ"},"geometry":{"type":"Point","coordinates":[2.404355,6.36298]}},{"type":"Feature","properties":{"featurecla":"Admin-0 capital","adm0cap":1,"name":"Sofia","nameascii":"Sofia","adm0name":"Bulgaria","sov0name":"Bulgaria","adm0_a3":"BGR","sov_a3":"BGR","iso_a2":"BG"},"geometry":{"type":"Point","coordinates":[23.314708,42.685295]}},{"type":"Feature","properties":{"featurecla":"Admin-0 capital","adm0cap":1,"name":"Minsk","nameascii":"Minsk","adm0name":"Belarus","sov0name":"Belarus","adm0_a3":"BLR","sov_a3":"BLR","iso_a2":"BY"},"geometry":{"type":"Point","coordinates":[27.564681,53.901923]}},{"type":"Feature","properties":{"featurecla":"Admin-0 capital","adm0cap":1,"name":"Thimphu","nameascii":"Thimphu","adm0name":"Bhutan","sov0name":"Bhutan","adm0_a3":"BTN","sov_a3":"BTN","iso_a2":"BT"},"geometry":{"type":"Point","coordinates":[89.639014,27.472986]}},{"type":"Feature","properties":{"featurecla":"Admin-0 capital","adm0cap":1,"name":"Gaborone","nameascii":"Gaborone","adm0name":"Botswana","sov0name":"Botswana","adm0_a3":"BWA","sov_a3":"BWA","iso_a2":"BW"},"geometry":{"type":"Point","coordinates":[25.911948,-24.646314]}},{"type":"Feature","properties":{"featurecla":"Admin-0 capital","adm0cap":1,"name":"Canberra","nameascii":"Canberra","adm0name":"Australia","sov0name":"Australia","adm0_a3":"AUS","sov_a3":"AUS","iso_a2":"AU"},"geometry":{"type":"Point","coordinates":[149.129026,-35.283029]}},{"type":"Feature","properties":{"featurecla":"Admin-0 capital","adm0cap":1,"name":"Ouagadougou","nameascii":"Ouagadougou","adm0name":"Burkina Faso","sov0name":"Burkina Faso","adm0_a3":"BFA","sov_a3":"BFA","iso_a2":"BF"},"geometry":{"type":"Point","coordinates":[-1.52667,12.372262]}},{"type":"Feature","properties":{"featurecla":"Admin-0 capital","adm0cap":1,"name":"Sarajevo","nameascii":"Sarajevo","adm0name":"Bosnia and Herzegovina","sov0name":"Bosnia and Herzegovina","adm0_a3":"BIH","sov_a3":"BIH","iso_a2":"BA"},"geometry":{"type":"Point","coordinates":[18.383002,43.850022]}},{"type":"Feature","properties":{"featurecla":"Admin-0 capital","adm0cap":1,"name":"Naypyidaw","nameascii":"Naypyidaw","adm0name":"Myanmar","sov0name":"Myanmar","adm0_a3":"MMR","sov_a3":"MMR","iso_a2":"MM"},"geometry":{"type":"Point","coordinates":[96.116673,19.768503]}},{"type":"Feature","properties":{"featurecla":"Admin-0 region capital","adm0cap":1,"name":"Hamilton","nameascii":"Hamilton","adm0name":"Bermuda","sov0name":"United Kingdom","adm0_a3":"BMU","sov_a3":"GBR","iso_a2":"BM"},"geometry":{"type":"Point","coordinates":[-64.783937,32.29419]}},{"type":"Feature","properties":{"featurecla":"Admin-0 capital","adm0cap":1,"name":"Nuku'alofa","nameascii":"Nukualofa","adm0name":"Tonga","sov0name":"Tonga","adm0_a3":"TON","sov_a3":"TON","iso_a2":"TO"},"geometry":{"type":"Point","coordinates":[-175.220564,-21.138512]}},{"type":"Feature","properties":{"featurecla":"Admin-0 capital","adm0cap":1,"name":"Hargeisa","nameascii":"Hargeysa","adm0name":"Somaliland","sov0name":"Somaliland","adm0_a3":"SOL","sov_a3":"SOL","iso_a2":"-99"},"geometry":{"type":"Point","coordinates":[44.06531,9.560022]}},{"type":"Feature","properties":{"featurecla":"Admin-0 capital","adm0cap":1,"name":"Victoria","nameascii":"Victoria","adm0name":"Seychelles","sov0name":"Seychelles","adm0_a3":"SYC","sov_a3":"SYC","iso_a2":"SC"},"geometry":{"type":"Point","coordinates":[55.44999,-4.616632]}},{"type":"Feature","properties":{"featurecla":"Admin-0 capital","adm0cap":1,"name":"São Tomé","nameascii":"Sao Tome","adm0name":"Sao Tome and Principe","sov0name":"Sao Tome and Principe","adm0_a3":"STP","sov_a3":"STP","iso_a2":"ST"},"geometry":{"type":"Point","coordinates":[6.72965,0.337466]}},{"type":"Feature","properties":{"featurecla":"Admin-0 capital","adm0cap":1,"name":"Apia","nameascii":"Apia","adm0name":"Samoa","sov0name":"Samoa","adm0_a3":"WSM","sov_a3":"WSM","iso_a2":"WS"},"geometry":{"type":"Point","coordinates":[-171.768599,-13.835715]}},{"type":"Feature","properties":{"featurecla":"Admin-0 capital","adm0cap":1,"name":"Valletta","nameascii":"Valletta","adm0name":"Malta","sov0name":"Malta","adm0_a3":"MLT","sov_a3":"MLT","iso_a2":"MT"},"geometry":{"type":"Point","coordinates":[14.514711,35.899732]}},{"type":"Feature","properties":{"featurecla":"Admin-0 capital","adm0cap":1,"name":"Malé","nameascii":"Male","adm0name":"Maldives","sov0name":"Maldives","adm0_a3":"MDV","sov_a3":"MDV","iso_a2":"MV"},"geometry":{"type":"Point","coordinates":[73.508901,4.172037]}},{"type":"Feature","properties":{"featurecla":"Admin-0 capital","adm0cap":1,"name":"Jerusalem","nameascii":"Jerusalem","adm0name":"Israel","sov0name":"Israel","adm0_a3":"ISR","sov_a3":"IS1","iso_a2":"IL"},"geometry":{"type":"Point","coordinates":[35.206626,31.778408]}},{"type":"Feature","properties":{"featurecla":"Admin-0 capital","adm0cap":1,"name":"Praia","nameascii":"Praia","adm0name":"Cape Verde","sov0name":"Cape Verde","adm0_a3":"CPV","sov_a3":"CPV","iso_a2":"CV"},"geometry":{"type":"Point","coordinates":[-23.516689,14.916698]}},{"type":"Feature","properties":{"featurecla":"Admin-0 capital","adm0cap":1,"name":"Nassau","nameascii":"Nassau","adm0name":"The Bahamas","sov0name":"Bahamas, The","adm0_a3":"BHS","sov_a3":"BHS","iso_a2":"BS"},"geometry":{"type":"Point","coordinates":[-77.350044,25.08339]}},{"type":"Feature","properties":{"featurecla":"Admin-0 capital","adm0cap":1,"name":"Nicosia","nameascii":"Nicosia","adm0name":"Cyprus","sov0name":"Cyprus","adm0_a3":"CYP","sov_a3":"CYP","iso_a2":"CY"},"geometry":{"type":"Point","coordinates":[33.366635,35.166677]}},{"type":"Feature","properties":{"featurecla":"Admin-0 capital","adm0cap":1,"name":"Wellington","nameascii":"Wellington","adm0name":"New Zealand","sov0name":"New Zealand","adm0_a3":"NZL","sov_a3":"NZL","iso_a2":"NZ"},"geometry":{"type":"Point","coordinates":[174.777201,-41.292068]}},{"type":"Feature","properties":{"featurecla":"Admin-0 capital","adm0cap":1,"name":"Hanoi","nameascii":"Hanoi","adm0name":"Vietnam","sov0name":"Vietnam","adm0_a3":"VNM","sov_a3":"VNM","iso_a2":"VN"},"geometry":{"type":"Point","coordinates":[105.848068,21.035273]}},{"type":"Feature","properties":{"featurecla":"Admin-0 capital","adm0cap":1,"name":"Ankara","nameascii":"Ankara","adm0name":"Turkey","sov0name":"Turkey","adm0_a3":"TUR","sov_a3":"TUR","iso_a2":"TR"},"geometry":{"type":"Point","coordinates":[32.862446,39.929184]}},{"type":"Feature","properties":{"featurecla":"Admin-0 capital","adm0cap":1,"name":"Budapest","nameascii":"Budapest","adm0name":"Hungary","sov0name":"Hungary","adm0_a3":"HUN","sov_a3":"HUN","iso_a2":"HU"},"geometry":{"type":"Point","coordinates":[19.081375,47.501952]}},{"type":"Feature","properties":{"featurecla":"Admin-0 capital","adm0cap":1,"name":"Sanaa","nameascii":"Sanaa","adm0name":"Yemen","sov0name":"Yemen","adm0_a3":"YEM","sov_a3":"YEM","iso_a2":"YE"},"geometry":{"type":"Point","coordinates":[44.204648,15.356679]}},{"type":"Feature","properties":{"featurecla":"Admin-0 capital","adm0cap":1,"name":"Bucharest","nameascii":"Bucharest","adm0name":"Romania","sov0name":"Romania","adm0_a3":"ROU","sov_a3":"ROU","iso_a2":"RO"},"geometry":{"type":"Point","coordinates":[26.098001,44.435318]}},{"type":"Feature","properties":{"featurecla":"Admin-0 capital","adm0cap":1,"name":"Damascus","nameascii":"Damascus","adm0name":"Syria","sov0name":"Syria","adm0_a3":"SYR","sov_a3":"SYR","iso_a2":"SY"},"geometry":{"type":"Point","coordinates":[36.29805,33.50198]}},{"type":"Feature","properties":{"featurecla":"Admin-0 capital","adm0cap":1,"name":"Lisbon","nameascii":"Lisbon","adm0name":"Portugal","sov0name":"Portugal","adm0_a3":"PRT","sov_a3":"PRT","iso_a2":"PT"},"geometry":{"type":"Point","coordinates":[-9.146812,38.724669]}},{"type":"Feature","properties":{"featurecla":"Admin-0 capital","adm0cap":1,"name":"Khartoum","nameascii":"Khartoum","adm0name":"Sudan","sov0name":"Sudan","adm0_a3":"SDN","sov_a3":"SDN","iso_a2":"SD"},"geometry":{"type":"Point","coordinates":[32.532233,15.590024]}},{"type":"Feature","properties":{"featurecla":"Admin-0 capital","adm0cap":1,"name":"Oslo","nameascii":"Oslo","adm0name":"Norway","sov0name":"Kingdom of Norway","adm0_a3":"NOR","sov_a3":"NOR","iso_a2":"NO"},"geometry":{"type":"Point","coordinates":[10.748033,59.918636]}},{"type":"Feature","properties":{"featurecla":"Admin-0 capital","adm0cap":1,"name":"Warsaw","nameascii":"Warsaw","adm0name":"Poland","sov0name":"Poland","adm0_a3":"POL","sov_a3":"POL","iso_a2":"PL"},"geometry":{"type":"Point","coordinates":[21.005347,52.230872]}},{"type":"Feature","properties":{"featurecla":"Admin-0 capital","adm0cap":1,"name":"Pyongyang","nameascii":"Pyongyang","adm0name":"North Korea","sov0name":"Korea, North","adm0_a3":"PRK","sov_a3":"PRK","iso_a2":"KP"},"geometry":{"type":"Point","coordinates":[125.752745,39.021385]}},{"type":"Feature","properties":{"featurecla":"Admin-0 capital","adm0cap":1,"name":"Dar es Salaam","nameascii":"Dar es Salaam","adm0name":"Tanzania","sov0name":"United Republic of Tanzania","adm0_a3":"TZA","sov_a3":"TZA","iso_a2":"TZ"},"geometry":{"type":"Point","coordinates":[39.266396,-6.798067]}},{"type":"Feature","properties":{"featurecla":"Admin-0 capital","adm0cap":1,"name":"Dublin","nameascii":"Dublin","adm0name":"Ireland","sov0name":"Ireland","adm0_a3":"IRL","sov_a3":"IRL","iso_a2":"IE"},"geometry":{"type":"Point","coordinates":[-6.25698,53.346731]}},{"type":"Feature","properties":{"featurecla":"Admin-0 capital","adm0cap":1,"name":"Monrovia","nameascii":"Monrovia","adm0name":"Liberia","sov0name":"Liberia","adm0_a3":"LBR","sov_a3":"LBR","iso_a2":"LR"},"geometry":{"type":"Point","coordinates":[-10.79966,6.314582]}},{"type":"Feature","properties":{"featurecla":"Admin-0 capital","adm0cap":1,"name":"Kuala Lumpur","nameascii":"Kuala Lumpur","adm0name":"Malaysia","sov0name":"Malaysia","adm0_a3":"MYS","sov_a3":"MYS","iso_a2":"MY"},"geometry":{"type":"Point","coordinates":[101.688699,3.139797]}},{"type":"Feature","properties":{"featurecla":"Admin-0 capital","adm0cap":1,"name":"Havana","nameascii":"Havana","adm0name":"Cuba","sov0name":"Cuba","adm0_a3":"CUB","sov_a3":"CUB","iso_a2":"CU"},"geometry":{"type":"Point","coordinates":[-82.366128,23.133905]}},{"type":"Feature","properties":{"featurecla":"Admin-0 capital","adm0cap":1,"name":"Prague","nameascii":"Prague","adm0name":"Czechia","sov0name":"Czechia","adm0_a3":"CZE","sov_a3":"CZE","iso_a2":"CZ"},"geometry":{"type":"Point","coordinates":[14.422939,50.086967]}},{"type":"Feature","properties":{"featurecla":"Admin-0 capital","adm0cap":1,"name":"Kuwait City","nameascii":"Kuwait City","adm0name":"Kuwait","sov0name":"Kuwait","adm0_a3":"KWT","sov_a3":"KWT","iso_a2":"KW"},"geometry":{"type":"Point","coordinates":[47.976355,29.371664]}},{"type":"Feature","properties":{"featurecla":"Admin-0 capital","adm0cap":1,"name":"Santo Domingo","nameascii":"Santo Domingo","adm0name":"Dominican Republic","sov0name":"Dominican Republic","adm0_a3":"DOM","sov_a3":"DOM","iso_a2":"DO"},"geometry":{"type":"Point","coordinates":[-69.929742,18.470745]}},{"type":"Feature","properties":{"featurecla":"Admin-0 capital","adm0cap":1,"name":"Accra","nameascii":"Accra","adm0name":"Ghana","sov0name":"Ghana","adm0_a3":"GHA","sov_a3":"GHA","iso_a2":"GH"},"geometry":{"type":"Point","coordinates":[-0.218662,5.55198]}},{"type":"Feature","properties":{"featurecla":"Admin-0 capital","adm0cap":1,"name":"Tripoli","nameascii":"Tripoli","adm0name":"Libya","sov0name":"Libya","adm0_a3":"LBY","sov_a3":"LBY","iso_a2":"LY"},"geometry":{"type":"Point","coordinates":[13.180012,32.8925]}},{"type":"Feature","properties":{"featurecla":"Admin-0 capital alt","adm0cap":0,"name":"Tel Aviv","nameascii":"Tel Aviv-Yafo","adm0name":"Israel","sov0name":"Israel","adm0_a3":"ISR","sov_a3":"IS1","iso_a2":"IL"},"geometry":{"type":"Point","coordinates":[34.768066,32.081937]}},{"type":"Feature","properties":{"featurecla":"Admin-0 capital","adm0cap":1,"name":"Helsinki","nameascii":"Helsinki","adm0name":"Finland","sov0name":"Finland","adm0_a3":"FIN","sov_a3":"FIN","iso_a2":"FI"},"geometry":{"type":"Point","coordinates":[24.932457,60.163804]}},{"type":"Feature","properties":{"featurecla":"Admin-0 capital","adm0cap":1,"name":"København","nameascii":"Kobenhavn","adm0name":"Denmark","sov0name":"Denmark","adm0_a3":"DNK","sov_a3":"DNK","iso_a2":"DK"},"geometry":{"type":"Point","coordinates":[12.56154,55.68051]}},{"type":"Feature","properties":{"featurecla":"Admin-0 capital","adm0cap":1,"name":"Abidjan","nameascii":"Abidjan","adm0name":"Ivory Coast","sov0name":"Ivory Coast","adm0_a3":"CIV","sov_a3":"CIV","iso_a2":"CI"},"geometry":{"type":"Point","coordinates":[-4.020207,5.323126]}},{"type":"Feature","properties":{"featurecla":"Admin-0 capital","adm0cap":1,"name":"Brasília","nameascii":"Brasilia","adm0name":"Brazil","sov0name":"Brazil","adm0_a3":"BRA","sov_a3":"BRA","iso_a2":"BR"},"geometry":{"type":"Point","coordinates":[-47.917998,-15.781394]}},{"type":"Feature","properties":{"featurecla":"Admin-0 capital","adm0cap":1,"name":"Brussels","nameascii":"Brussels","adm0name":"Belgium","sov0name":"Belgium","adm0_a3":"BEL","sov_a3":"BEL","iso_a2":"BE"},"geometry":{"type":"Point","coordinates":[4.331371,50.835263]}},{"type":"Feature","properties":{"featurecla":"Admin-0 capital","adm0cap":1,"name":"Dhaka","nameascii":"Dhaka","adm0name":"Bangladesh","sov0name":"Bangladesh","adm0_a3":"BGD","sov_a3":"BGD","iso_a2":"BD"},"geometry":{"type":"Point","coordinates":[90.406634,23.725006]}},{"type":"Feature","properties":{"featurecla":"Admin-0 capital","adm0cap":1,"name":"Luanda","nameascii":"Luanda","adm0name":"Angola","sov0name":"Angola","adm0_a3":"AGO","sov_a3":"AGO","iso_a2":"AO"},"geometry":{"type":"Point","coordinates":[13.232481,-8.83634]}},{"type":"Feature","properties":{"featurecla":"Admin-0 capital","adm0cap":1,"name":"Algiers","nameascii":"Algiers","adm0name":"Algeria","sov0name":"Algeria","adm0_a3":"DZA","sov_a3":"DZA","iso_a2":"DZ"},"geometry":{"type":"Point","coordinates":[3.048607,36.765011]}},{"type":"Feature","properties":{"featurecla":"Admin-0 capital","adm0cap":0,"name":"Yangon","nameascii":"Rangoon","adm0name":"Myanmar","sov0name":"Myanmar","adm0_a3":"MMR","sov_a3":"MMR","iso_a2":"MM"},"geometry":{"type":"Point","coordinates":[96.164732,16.7853]}},{"type":"Feature","properties":{"featurecla":"Admin-0 capital","adm0cap":1,"name":"Caracas","nameascii":"Caracas","adm0name":"Venezuela","sov0name":"Venezuela","adm0_a3":"VEN","sov_a3":"VEN","iso_a2":"VE"},"geometry":{"type":"Point","coordinates":[-66.918983,10.502944]}},{"type":"Feature","properties":{"featurecla":"Admin-0 capital","adm0cap":1,"name":"Kyiv","nameascii":"Kiev","adm0name":"Ukraine","sov0name":"Ukraine","adm0_a3":"UKR","sov_a3":"UKR","iso_a2":"UA"},"geometry":{"type":"Point","coordinates":[30.514682,50.435313]}},{"type":"Feature","properties":{"featurecla":"Admin-0 capital","adm0cap":1,"name":"Tashkent","nameascii":"Tashkent","adm0name":"Uzbekistan","sov0name":"Uzbekistan","adm0_a3":"UZB","sov_a3":"UZB","iso_a2":"UZ"},"geometry":{"type":"Point","coordinates":[69.268823,41.303828]}},{"type":"Feature","properties":{"featurecla":"Admin-0 capital","adm0cap":1,"name":"Madrid","nameascii":"Madrid","adm0name":"Spain","sov0name":"Kingdom of Spain","adm0_a3":"ESP","sov_a3":"ESP","iso_a2":"ES"},"geometry":{"type":"Point","coordinates":[-3.685297,40.401972]}},{"type":"Feature","properties":{"featurecla":"Admin-0 capital","adm0cap":1,"name":"Stockholm","nameascii":"Stockholm","adm0name":"Sweden","sov0name":"Sweden","adm0_a3":"SWE","sov_a3":"SWE","iso_a2":"SE"},"geometry":{"type":"Point","coordinates":[18.0663,59.324127]}},{"type":"Feature","properties":{"featurecla":"Admin-0 capital","adm0cap":1,"name":"Bangkok","nameascii":"Bangkok","adm0name":"Thailand","sov0name":"Thailand","adm0_a3":"THA","sov_a3":"THA","iso_a2":"TH"},"geometry":{"type":"Point","coordinates":[100.514699,13.751945]}},{"type":"Feature","properties":{"featurecla":"Admin-0 capital","adm0cap":1,"name":"Lima","nameascii":"Lima","adm0name":"Peru","sov0name":"Peru","adm0_a3":"PER","sov_a3":"PER","iso_a2":"PE"},"geometry":{"type":"Point","coordinates":[-77.052008,-12.046067]}},{"type":"Feature","properties":{"featurecla":"Admin-0 capital","adm0cap":1,"name":"Dakar","nameascii":"Dakar","adm0name":"Senegal","sov0name":"Senegal","adm0_a3":"SEN","sov_a3":"SEN","iso_a2":"SN"},"geometry":{"type":"Point","coordinates":[-17.475076,14.717778]}},{"type":"Feature","properties":{"featurecla":"Admin-0 capital","adm0cap":0,"name":"Johannesburg","nameascii":"Johannesburg","adm0name":"South Africa","sov0name":"South Africa","adm0_a3":"ZAF","sov_a3":"ZAF","iso_a2":"ZA"},"geometry":{"type":"Point","coordinates":[28.028064,-26.168099]}},{"type":"Feature","properties":{"featurecla":"Admin-0 capital","adm0cap":1,"name":"Amsterdam","nameascii":"Amsterdam","adm0name":"Netherlands","sov0name":"Kingdom of the Netherlands","adm0_a3":"NLD","sov_a3":"NLD","iso_a2":"NL"},"geometry":{"type":"Point","coordinates":[4.914694,52.351914]}},{"type":"Feature","properties":{"featurecla":"Admin-0 capital","adm0cap":1,"name":"Seoul","nameascii":"Seoul","adm0name":"South Korea","sov0name":"Korea, South","adm0_a3":"KOR","sov_a3":"KOR","iso_a2":"KR"},"geometry":{"type":"Point","coordinates":[126.997785,37.568295]}},{"type":"Feature","properties":{"featurecla":"Admin-0 capital","adm0cap":1,"name":"Manila","nameascii":"Manila","adm0name":"Philippines","sov0name":"Philippines","adm0_a3":"PHL","sov_a3":"PHL","iso_a2":"PH"},"geometry":{"type":"Point","coordinates":[120.980271,14.606105]}},{"type":"Feature","properties":{"featurecla":"Admin-0 capital","adm0cap":1,"name":"Berlin","nameascii":"Berlin","adm0name":"Germany","sov0name":"Germany","adm0_a3":"DEU","sov_a3":"DEU","iso_a2":"DE"},"geometry":{"type":"Point","coordinates":[13.399603,52.523764]}},{"type":"Feature","properties":{"featurecla":"Admin-0 capital","adm0cap":1,"name":"Kinshasa","nameascii":"Kinshasa","adm0name":"Congo (Kinshasa)","sov0name":"Congo (Kinshasa)","adm0_a3":"COD","sov_a3":"COD","iso_a2":"CD"},"geometry":{"type":"Point","coordinates":[15.313026,-4.327778]}},{"type":"Feature","properties":{"featurecla":"Admin-0 capital","adm0cap":1,"name":"New Delhi","nameascii":"New Delhi","adm0name":"India","sov0name":"India","adm0_a3":"IND","sov_a3":"IND","iso_a2":"IN"},"geometry":{"type":"Point","coordinates":[77.19998,28.600023]}},{"type":"Feature","properties":{"featurecla":"Admin-0 capital","adm0cap":1,"name":"Athens","nameascii":"Athens","adm0name":"Greece","sov0name":"Greece","adm0_a3":"GRC","sov_a3":"GRC","iso_a2":"GR"},"geometry":{"type":"Point","coordinates":[23.731375,37.985272]}},{"type":"Feature","properties":{"featurecla":"Admin-0 capital","adm0cap":1,"name":"Baghdad","nameascii":"Baghdad","adm0name":"Iraq","sov0name":"Iraq","adm0_a3":"IRQ","sov_a3":"IRQ","iso_a2":"IQ"},"geometry":{"type":"Point","coordinates":[44.391923,33.340594]}},{"type":"Feature","properties":{"featurecla":"Admin-0 capital","adm0cap":1,"name":"Addis Ababa","nameascii":"Addis Ababa","adm0name":"Ethiopia","sov0name":"Ethiopia","adm0_a3":"ETH","sov_a3":"ETH","iso_a2":"ET"},"geometry":{"type":"Point","coordinates":[38.698059,9.035256]}},{"type":"Feature","properties":{"featurecla":"Admin-0 capital","adm0cap":1,"name":"Tehran","nameascii":"Tehran","adm0name":"Iran","sov0name":"Iran","adm0_a3":"IRN","sov_a3":"IRN","iso_a2":"IR"},"geometry":{"type":"Point","coordinates":[51.422398,35.673889]}},{"type":"Feature","properties":{"featurecla":"Admin-0 capital","adm0cap":1,"name":"Buenos Aires","nameascii":"Buenos Aires","adm0name":"Argentina","sov0name":"Argentina","adm0_a3":"ARG","sov_a3":"ARG","iso_a2":"AR"},"geometry":{"type":"Point","coordinates":[-58.432513,-34.610715]}},{"type":"Feature","properties":{"featurecla":"Admin-0 capital","adm0cap":1,"name":"Kabul","nameascii":"Kabul","adm0name":"Afghanistan","sov0name":"Afghanistan","adm0_a3":"AFG","sov_a3":"AFG","iso_a2":"AF"},"geometry":{"type":"Point","coordinates":[69.181314,34.518636]}},{"type":"Feature","properties":{"featurecla":"Admin-0 capital","adm0cap":1,"name":"Vienna","nameascii":"Vienna","adm0name":"Austria","sov0name":"Austria","adm0_a3":"AUT","sov_a3":"AUT","iso_a2":"AT"},"geometry":{"type":"Point","coordinates":[16.364693,48.201961]}},{"type":"Feature","properties":{"featurecla":"Admin-0 capital","adm0cap":1,"name":"Taipei","nameascii":"Taipei","adm0name":"Taiwan","sov0name":"Taiwan","adm0_a3":"TWN","sov_a3":"TWN","iso_a2":"TW"},"geometry":{"type":"Point","coordinates":[121.568333,25.035833]}},{"type":"Feature","properties":{"featurecla":"Admin-0 capital","adm0cap":1,"name":"Washington,  D.C.","nameascii":"Washington, D.C.","adm0name":"United States of America","sov0name":"United States","adm0_a3":"USA","sov_a3":"USA","iso_a2":"US"},"geometry":{"type":"Point","coordinates":[-77.011364,38.901495]}},{"type":"Feature","properties":{"featurecla":"Admin-0 capital","adm0cap":1,"name":"London","nameascii":"London","adm0name":"United Kingdom","sov0name":"United Kingdom","adm0_a3":"GBR","sov_a3":"GBR","iso_a2":"GB"},"geometry":{"type":"Point","coordinates":[-0.118668,51.501941]}},{"type":"Feature","properties":{"featurecla":"Admin-0 capital","adm0cap":1,"name":"Riyadh","nameascii":"Riyadh","adm0name":"Saudi Arabia","sov0name":"Saudi Arabia","adm0_a3":"SAU","sov_a3":"SAU","iso_a2":"SA"},"geometry":{"type":"Point","coordinates":[46.720487,24.634497]}},{"type":"Feature","properties":{"featurecla":"Admin-0 capital","adm0cap":1,"name":"Cape Town","nameascii":"Cape Town","adm0name":"South Africa","sov0name":"South Africa","adm0_a3":"ZAF","sov_a3":"ZAF","iso_a2":"ZA"},"geometry":{"type":"Point","coordinates":[18.433042,-33.918065]}},{"type":"Feature","properties":{"featurecla":"Admin-0 capital","adm0cap":1,"name":"Moscow","nameascii":"Moscow","adm0name":"Russia","sov0name":"Russia","adm0_a3":"RUS","sov_a3":"RUS","iso_a2":"RU"},"geometry":{"type":"Point","coordinates":[37.613577,55.75411]}},{"type":"Feature","properties":{"featurecla":"Admin-0 capital","adm0cap":1,"name":"Mexico City","nameascii":"Mexico City","adm0name":"Mexico","sov0name":"Mexico","adm0_a3":"MEX","sov_a3":"MEX","iso_a2":"MX"},"geometry":{"type":"Point","coordinates":[-99.132934,19.444388]}},{"type":"Feature","properties":{"featurecla":"Admin-0 capital alt","adm0cap":0,"name":"Lagos","nameascii":"Lagos","adm0name":"Nigeria","sov0name":"Nigeria","adm0_a3":"NGA","sov_a3":"NGA","iso_a2":"NG"},"geometry":{"type":"Point","coordinates":[3.389585,6.445208]}},{"type":"Feature","properties":{"featurecla":"Admin-0 capital","adm0cap":1,"name":"Rome","nameascii":"Rome","adm0name":"Italy","sov0name":"Italy","adm0_a3":"ITA","sov_a3":"ITA","iso_a2":"IT"},"geometry":{"type":"Point","coordinates":[12.481313,41.897902]}},{"type":"Feature","properties":{"featurecla":"Admin-0 capital","adm0cap":1,"name":"Beijing","nameascii":"Beijing","adm0name":"China","sov0name":"China","adm0_a3":"CHN","sov_a3":"CHN","iso_a2":"CN"},"geometry":{"type":"Point","coordinates":[116.394201,39.90172]}},{"type":"Feature","properties":{"featurecla":"Admin-0 capital","adm0cap":1,"name":"Nairobi","nameascii":"Nairobi","adm0name":"Kenya","sov0name":"Kenya","adm0_a3":"KEN","sov_a3":"KEN","iso_a2":"KE"},"geometry":{"type":"Point","coordinates":[36.814711,-1.281401]}},{"type":"Feature","properties":{"featurecla":"Admin-0 capital","adm0cap":1,"name":"Jakarta","nameascii":"Jakarta","adm0name":"Indonesia","sov0name":"Indonesia","adm0_a3":"IDN","sov_a3":"IDN","iso_a2":"ID"},"geometry":{"type":"Point","coordinates":[106.827492,-6.172472]}},{"type":"Feature","properties":{"featurecla":"Admin-0 capital","adm0cap":1,"name":"Bogota","nameascii":"Bogota","adm0name":"Colombia","sov0name":"Colombia","adm0_a3":"COL","sov_a3":"COL","iso_a2":"CO"},"geometry":{"type":"Point","coordinates":[-74.08529,4.598369]}},{"type":"Feature","properties":{"featurecla":"Admin-0 capital","adm0cap":1,"name":"Cairo","nameascii":"Cairo","adm0name":"Egypt","sov0name":"Egypt","adm0_a3":"EGY","sov_a3":"EGY","iso_a2":"EG"},"geometry":{"type":"Point","coordinates":[31.248022,30.051906]}},{"type":"Feature","properties":{"featurecla":"Admin-0 capital","adm0cap":1,"name":"Tokyo","nameascii":"Tokyo","adm0name":"Japan","sov0name":"Japan","adm0_a3":"JPN","sov_a3":"JPN","iso_a2":"JP"},"geometry":{"type":"Point","coordinates":[139.749462,35.686963]}},{"type":"Feature","properties":{"featurecla":"Admin-0 capital","adm0cap":1,"name":"Paris","nameascii":"Paris","adm0name":"France","sov0name":"French Republic","adm0_a3":"FRA","sov_a3":"FRA","iso_a2":"FR"},"geometry":{"type":"Point","coordinates":[2.352992,48.858092]}},{"type":"Feature","properties":{"featurecla":"Admin-0 capital","adm0cap":1,"name":"Santiago","nameascii":"Santiago","adm0name":"Chile","sov0name":"Chile","adm0_a3":"CHL","sov_a3":"CHL","iso_a2":"CL"},"geometry":{"type":"Point","coordinates":[-70.650504,-33.440205]}},{"type":"Feature","properties":{"featurecla":"Admin-0 capital","adm0cap":1,"name":"Singapore","nameascii":"Singapore","adm0name":"Singapore","sov0name":"Singapore","adm0_a3":"SGP","sov_a3":"SGP","iso_a2":"SG"},"geometry":{"type":"Point","coordinates":[103.853875,1.294979]}}]}